[
  {

    "name": "Falafel cafe",
    "rating": 5,
    "price": "$",
    "location": {
      "address1": "401 19th St S",
      "address2": "Ste 100",
      "city": "Birmingham",
      "zip_code": "35233",
      "country": "US",
      "state": "AL"
    },
    "phone": "+12058683999"
  },
  {
    "name": "Smiley Brothers Specialty Foods",
    "rating": 5,
    "price": "$$",
    "location": {
      "address1": "214 Huntley Pkwy",
      "address2": null,
      "city": "Pelham",
      "zip_code": "35124",
      "country": "US",
      "state": "AL"
    },
    "phone": "+12054068421"
  },
  {
    "name": "Yo' Mama's",
    "rating": 4.5,
    "price": "$$",
    "location": {
      "address1": "2328 2nd Ave N",
      "address2": null,
      "city": "Birmingham",
      "zip_code": "35203",
      "country": "US",
      "state": "AL"
    },
    "phone": "+12059576545"
  },
  {
    "name": "Dos Hermanos Taco Truck",
    "rating": 5,
    "price": "$",
    "location": {
      "address1": "215 W Valley Ave",
      "address2": "",
      "city": "Birmingham",
      "zip_code": "35209",
      "country": "US",
      "state": "AL"
    },
    "phone": ""
  },
  {
    "name": "Birmingham Civil Rights Institute",
    "rating": 5,
    "location": {
      "address1": "520 16th St N",
      "address2": "",
      "city": "Birmingham",
      "zip_code": "35203",
      "country": "US",
      "state": "AL"
    },
    "phone": "+12053289696"
  },
  {
    "name": "International House Of Hotdogs",
    "rating": 5,
    "price": "$$",
    "location": {
      "address1": "415 L St",
      "address2": null,
      "city": "Anchorage",
      "zip_code": "99501",
      "country": "US",
      "state": "AK"
    },
    "phone": "+19072273081"
  },
  {
    "name": "WooHoo! Ice cream",
    "rating": 5,
    "price": "$",
    "location": {
      "address1": "5881 Arctic Blvd",
      "address2": null,
      "city": "Anchorage",
      "zip_code": "99518",
      "country": "US",
      "state": "AK"
    },
    "phone": "+19073513087"
  },
  {
    "name": "Wild Scoops",
    "rating": 4.5,
    "price": "$$",
    "location": {
      "address1": "429 E St",
      "address2": "",
      "city": "Anchorage",
      "zip_code": "99501",
      "country": "US",
      "state": "AK"
    },
    "phone": "+19077447295"
  },
  {
    "name": "Moose's Tooth",
    "rating": 4.5,
    "price": "$$",
    "location": {
      "address1": "3300 Old Seward Hwy",
      "address2": "",
      "city": "Anchorage",
      "zip_code": "99503",
      "country": "US",
      "state": "AK"
    },
    "phone": "+19072582537"
  },
  {
    "name": "Turkish Delight",
    "rating": 4.5,
    "price": "$$",
    "location": {
      "address1": "2210 E Northern Lights Blvd",
      "address2": "Ste 110",
      "city": "Anchorage",
      "zip_code": "99508",
      "country": "US",
      "state": "AK"
    },
    "phone": "+19072583434"
  },
  {
    "name": "Novel Ice Cream",
    "rating": 5,
    "price": "$",
    "location": {
      "address1": "1028 Grand Ave",
      "address2": "Ste 6",
      "city": "Phoenix",
      "zip_code": "85007",
      "country": "US",
      "state": "AZ"
    },
    "phone": "+16023732235"
  },
  {
    "name": "Cocina Madrigal",
    "rating": 5,
    "price": "$$",
    "location": {
      "address1": "4044 S 16th St",
      "address2": null,
      "city": "Phoenix",
      "zip_code": "85040",
      "country": "US",
      "state": "AZ"
    },
    "phone": "+16022439000"
  },
  {
    "name": "Casa De Falafel",
    "rating": 5,
    "price": "$",
    "location": {
      "address1": "6730 W Cactus Rd",
      "address2": null,
      "city": "Peoria",
      "zip_code": "85381",
      "country": "US",
      "state": "AZ"
    },
    "phone": "+16239799234"
  },
  {
    "name": "Little Miss BBQ-University",
    "rating": 5,
    "price": "$$",
    "location": {
      "address1": "4301 E University Dr",
      "address2": "",
      "city": "Phoenix",
      "zip_code": "85034",
      "country": "US",
      "state": "AZ"
    },
    "phone": "+16024371177"
  },
  {
    "name": "A T Oasis Coffee & Tea Shop",
    "rating": 5,
    "price": "$",
    "location": {
      "address1": "4613 E Thomas Rd",
      "address2": null,
      "city": "Phoenix",
      "zip_code": "85018",
      "country": "US",
      "state": "AZ"
    },
    "phone": "+16029572054"
  },
  {
    "name": "Rose Rock Microcreamery",
    "rating": 5,
    "price": "$",
    "location": {
      "address1": "502 E 3rd St",
      "address2": "Fl 2, Unit 35",
      "city": "Tulsa",
      "zip_code": "74120",
      "country": "US",
      "state": "OK"
    },
    "phone": "+19183968001"
  },
  {
    "name": "Sisserou's",
    "rating": 4.5,
    "price": "$$",
    "location": {
      "address1": "107 N Boulder Ave",
      "address2": "Unit C",
      "city": "Tulsa",
      "zip_code": "74103",
      "country": "US",
      "state": "OK"
    },
    "phone": "+19185766800"
  },
  {
    "name": "Andolini's Pizza - Tulsa",
    "rating": 4.5,
    "price": "$$",
    "location": {
      "address1": "1552 E 15th St",
      "address2": "",
      "city": "Tulsa",
      "zip_code": "74120",
      "country": "US",
      "state": "OK"
    },
    "phone": "+19187286111"
  },
  {
    "name": "Gathering Place",
    "rating": 4.5,
    "location": {
      "address1": "2650 S John Williams Way E",
      "address2": "",
      "city": "Tulsa",
      "zip_code": "74114",
      "country": "US",
      "state": "OK"
    },
    "phone": "+19187791000"
  },
  {
    "name": "Pachac Peruvian Food",
    "rating": 5,
    "price": "$",
    "location": {
      "address1": "728 W 23rd St",
      "address2": "",
      "city": "Tulsa",
      "zip_code": "74107",
      "country": "US",
      "state": "OK"
    },
    "phone": "+19185742266"
  },
  {
    "name": "Half Dome Day Hike",
    "rating": 5,
    "location": {
      "address1": "",
      "address2": null,
      "city": "Yosemite National Park",
      "zip_code": "95389",
      "country": "US",
      "state": "CA"
    },
    "phone": "+12093720200"
  },
  {
    "name": "The Cake Barn",
    "rating": 5,
    "price": "$$",
    "location": {
      "address1": null,
      "address2": null,
      "city": "Prescott, Az",
      "zip_code": "86305",
      "country": "US",
      "state": "CA"
    },
    "phone": "+16612972806"
  },
  {
    "name": "Las Mananitas",
    "rating": 5,
    "price": "$",
    "location": {
      "address1": "1329 S Hazelwood Blvd",
      "address2": "",
      "city": "Fresno",
      "zip_code": "93702",
      "country": "US",
      "state": "CA"
    },
    "phone": "+15596181100"
  },
  {
    "name": "SKADI",
    "rating": 5,
    "price": "$$$",
    "location": {
      "address1": "94 Berner St",
      "address2": "Ste A",
      "city": "Mammoth Lakes",
      "zip_code": "93546",
      "country": "US",
      "state": "CA"
    },
    "phone": "+17609140962"
  },
  {
    "name": "Epic Cafe",
    "rating": 5,
    "price": "$$",
    "location": {
      "address1": "2758 Boulder Dr",
      "address2": "",
      "city": "June Lake",
      "zip_code": "93529",
      "country": "US",
      "state": "CA"
    },
    "phone": "+17606488044"
  },
  {
    "name": "Harley's: A Hot Dog Revolution",
    "rating": 5,
    "price": "$",
    "location": {
      "address1": "1500 W Littleton Blvd",
      "address2": "Ste 112",
      "city": "Littleton",
      "zip_code": "80120",
      "country": "US",
      "state": "CO"
    },
    "phone": "+17202369617"
  },
  {
    "name": "Smith+Canon Ice Cream",
    "rating": 5,
    "location": {
      "address1": "2260 E Colfax Ave",
      "address2": "Ste 102",
      "city": "Denver",
      "zip_code": "80206",
      "country": "US",
      "state": "CO"
    },
    "phone": "+17205466377"
  },
  {
    "name": "Cafe Miriam",
    "rating": 5,
    "price": "$",
    "location": {
      "address1": "2217 E 21st Ave",
      "address2": "",
      "city": "Denver",
      "zip_code": "80205",
      "country": "US",
      "state": "CO"
    },
    "phone": "+17203259027"
  },
  {
    "name": "Stranahan's Colorado Whiskey",
    "rating": 5,
    "price": "$$",
    "location": {
      "address1": "200 S Kalamath St",
      "address2": "",
      "city": "Denver",
      "zip_code": "80223",
      "country": "US",
      "state": "CO"
    },
    "phone": "+13032967440"
  },
  {
    "name": "Chautauqua Park",
    "rating": 5,
    "location": {
      "address1": "9TH St And Baseline Rd",
      "address2": "",
      "city": "Boulder",
      "zip_code": "80302",
      "country": "US",
      "state": "CO"
    },
    "phone": "+13034423282"
  },
  {
    "name": "Yalla Organic Hummus & Grill",
    "rating": 4.5,
    "price": "$$",
    "location": {
      "address1": "222 Post Rd",
      "address2": null,
      "city": "Fairfield",
      "zip_code": "06824",
      "country": "US",
      "state": "CT"
    },
    "phone": "+12032928822"
  },
  {
    "name": "Mama Chow",
    "rating": 4.5,
    "price": "$$",
    "location": {
      "address1": "3381 Post Rd",
      "address2": null,
      "city": "Southport",
      "zip_code": "06890",
      "country": "US",
      "state": "CT"
    },
    "phone": "+12032923696"
  },
  {
    "name": "Shandal's Vegetarian Cafe",
    "rating": 4.5,
    "price": "$",
    "location": {
      "address1": "520 Capitol Ave",
      "address2": null,
      "city": "Bridgeport",
      "zip_code": "06606",
      "country": "US",
      "state": "CT"
    },
    "phone": "+12033319777"
  },
  {
    "name": "The Tasty Yolk",
    "rating": 5,
    "price": "$",
    "location": {
      "address1": "2992 Fairfield Ave",
      "address2": null,
      "city": "Bridgeport",
      "zip_code": "06605",
      "country": "US",
      "state": "CT"
    },
    "phone": "+12035459311"
  },
  {
    "name": "Red Lotus",
    "rating": 4.5,
    "price": "$$",
    "location": {
      "address1": "872 Bridgeport Ave",
      "address2": null,
      "city": "Shelton",
      "zip_code": "06484",
      "country": "US",
      "state": "CT"
    },
    "phone": "+12039268725"
  },
  {
    "name": "Frank & Louie's Italian Specialties",
    "rating": 5,
    "price": "$",
    "location": {
      "address1": "58 Baltimore Ave",
      "address2": "",
      "city": "Rehoboth Beach",
      "zip_code": "19971",
      "country": "US",
      "state": "DE"
    },
    "phone": "+13022275777"
  },
  {
    "name": "Po' Boys Creole Restaurant",
    "rating": 4.5,
    "price": "$$",
    "location": {
      "address1": "900 Palmer St Route 16",
      "address2": "",
      "city": "Milton",
      "zip_code": "19968",
      "country": "US",
      "state": "DE"
    },
    "phone": "+13026840890"
  },
  {
    "name": "Jersey Shore Alpacas",
    "rating": 5,
    "price": "$",
    "location": {
      "address1": "521 Rt 47 S",
      "address2": null,
      "city": "Cape May",
      "zip_code": "08204",
      "country": "US",
      "state": "NJ"
    },
    "phone": "+16098894957"
  },
  {
    "name": "Scalessa's",
    "rating": 5,
    "price": "$$",
    "location": {
      "address1": "1836 N Lincoln St",
      "address2": null,
      "city": "Wilmington",
      "zip_code": "19806",
      "country": "US",
      "state": "DE"
    },
    "phone": "+13026561362"
  },
  {
    "name": "Legal Grounds Cafe",
    "rating": 5,
    "price": "$",
    "location": {
      "address1": "1208 Kirkwood Hwy",
      "address2": null,
      "city": "Wilmington",
      "zip_code": "19805",
      "country": "US",
      "state": "DE"
    },
    "phone": "+13025437350"
  },
  {
    "name": "Fratellino",
    "rating": 5,
    "price": "$$",
    "location": {
      "address1": "264 Miracle Mile",
      "address2": "",
      "city": "Coral Gables",
      "zip_code": "33134",
      "country": "US",
      "state": "FL"
    },
    "phone": "+17864520068"
  },
  {
    "name": "Franky's Deli Warehouse",
    "rating": 5,
    "price": "$",
    "location": {
      "address1": "2596 W 84th St",
      "address2": "",
      "city": "Hialeah",
      "zip_code": "33016",
      "country": "US",
      "state": "FL"
    },
    "phone": "+13058275366"
  },
  {
    "name": "Al-Amir",
    "rating": 5,
    "price": "$",
    "location": {
      "address1": "6420 SW 40th St",
      "address2": "",
      "city": "Miami",
      "zip_code": "33155",
      "country": "US",
      "state": "FL"
    },
    "phone": "+17866039400"
  },
  {
    "name": "Cindy Lou's Cookies",
    "rating": 5,
    "price": "$$",
    "location": {
      "address1": "7320 NE 2nd Ave",
      "address2": null,
      "city": "Miami",
      "zip_code": "33138",
      "country": "US",
      "state": "FL"
    },
    "phone": "+13054568585"
  },
  {
    "name": "The Office Cake",
    "rating": 5,
    "price": "$$",
    "location": {
      "address1": "13741 SW 139th Ct",
      "address2": "Ste 105",
      "city": "Miami",
      "zip_code": "33186",
      "country": "US",
      "state": "FL"
    },
    "phone": "+13054443202"
  },
  {
    "name": "Aviva by Kameel",
    "rating": 5,
    "price": "$$",
    "location": {
      "address1": "225 Peachtree St NE",
      "address2": "Ste B-30",
      "city": "Atlanta",
      "zip_code": "30303",
      "country": "US",
      "state": "GA"
    },
    "phone": "+14046983600"
  },
  {
    "name": "Marrakech Express",
    "rating": 5,
    "price": "$",
    "location": {
      "address1": "477 Flat Shoals Ave SE",
      "address2": "",
      "city": "Atlanta",
      "zip_code": "30316",
      "country": "US",
      "state": "GA"
    },
    "phone": "+17705680548"
  },
  {
    "name": "Local Expedition Wood Fired Grill",
    "rating": 5,
    "price": "$$",
    "location": {
      "address1": "1110 Hammond Dr",
      "address2": "Ste 15",
      "city": "Sandy Springs",
      "zip_code": "30328",
      "country": "US",
      "state": "GA"
    },
    "phone": "+17708379904"
  },
  {
    "name": "Himalayan Kitchen",
    "rating": 5,
    "price": "$",
    "location": {
      "address1": "1651 Roswell St",
      "address2": "Ste C",
      "city": "Smyrna",
      "zip_code": "30080",
      "country": "US",
      "state": "GA"
    },
    "phone": "+16782174443"
  },
  {
    "name": "Mushi Ni",
    "rating": 5,
    "price": "$$",
    "location": {
      "address1": "477 Flat Shoals Ave SE",
      "address2": null,
      "city": "Atlanta",
      "zip_code": "30316",
      "country": "US",
      "state": "GA"
    },
    "phone": "+14044056005"
  },
  {
    "name": "Waffle and Berry",
    "rating": 5,
    "location": {
      "address1": "333 Ward Ave",
      "address2": "",
      "city": "Honolulu",
      "zip_code": "96814",
      "country": "US",
      "state": "HI"
    },
    "phone": "+18082068272"
  },
  {
    "name": "Adela’s Country Eatery",
    "rating": 5,
    "price": "$$",
    "location": {
      "address1": "45-1151 Kamehameha Hwy",
      "address2": "",
      "city": "Kaneohe",
      "zip_code": "96744",
      "country": "US",
      "state": "HI"
    },
    "phone": "+18082362366"
  },
  {
    "name": "Uncle Clay's House Of Pure Aloha",
    "rating": 5,
    "price": "$",
    "location": {
      "address1": "820 W Hind Dr",
      "address2": "Ste 116",
      "city": "Honolulu",
      "zip_code": "96821",
      "country": "US",
      "state": "HI"
    },
    "phone": "+18083735111"
  },
  {
    "name": "Ali'i Coffee",
    "rating": 5,
    "price": "$",
    "location": {
      "address1": "35 S Beretania St",
      "address2": "",
      "city": "Honolulu",
      "zip_code": "96813",
      "country": "US",
      "state": "HI"
    },
    "phone": "+18085327928"
  },
  {
    "name": "Hawaiian Island Cafe",
    "rating": 5,
    "price": "$$",
    "location": {
      "address1": "41-1537 Kalanianaole Hwy",
      "address2": "Ste 6A",
      "city": "Waimanalo",
      "zip_code": "96795",
      "country": "US",
      "state": "HI"
    },
    "phone": "+18083124006"
  },
  {
    "name": "The STIL",
    "rating": 5,
    "price": "$",
    "location": {
      "address1": "786 W Broad St",
      "address2": null,
      "city": "Boise",
      "zip_code": "83702",
      "country": "US",
      "state": "ID"
    },
    "phone": "+12089537007"
  },
  {
    "name": "Tango's Subs and Empanadas",
    "rating": 4.5,
    "price": "$",
    "location": {
      "address1": "701 N Orchard St",
      "address2": null,
      "city": "Boise",
      "zip_code": "83706",
      "country": "US",
      "state": "ID"
    },
    "phone": "+12083223090"
  },
  {
    "name": "Epi's A Basque Restaurant",
    "rating": 4.5,
    "price": "$$$",
    "location": {
      "address1": "1115 N Main St",
      "address2": "",
      "city": "Meridian",
      "zip_code": "83642",
      "country": "US",
      "state": "ID"
    },
    "phone": "+12088840142"
  },
  {
    "name": "Island Sushi & Ramen",
    "rating": 4.5,
    "price": "$$",
    "location": {
      "address1": "8716 W Fairview Ave",
      "address2": "",
      "city": "Boise",
      "zip_code": "83704",
      "country": "US",
      "state": "ID"
    },
    "phone": "+12083780088"
  },
  {
    "name": "Petite 4",
    "rating": 5,
    "price": "$$$",
    "location": {
      "address1": "4 N Latah St",
      "address2": "",
      "city": "Boise",
      "zip_code": "83706",
      "country": "US",
      "state": "ID"
    },
    "phone": "+12083451055"
  },
  {
    "name": "Bistro 6050",
    "rating": 5,
    "price": "$",
    "location": {
      "address1": "6050 W Irving Park Rd",
      "address2": null,
      "city": "Chicago",
      "zip_code": "60634",
      "country": "US",
      "state": "IL"
    },
    "phone": "+13128836050"
  },
  {
    "name": "The Crepe Shop",
    "rating": 5,
    "price": "$",
    "location": {
      "address1": "2934 N Broadway St",
      "address2": null,
      "city": "Chicago",
      "zip_code": "60657",
      "country": "US",
      "state": "IL"
    },
    "phone": "+17738570018"
  },
  {
    "name": "Penumbra",
    "rating": 5,
    "price": "$$",
    "location": {
      "address1": "3309 W Fullerton Ave",
      "address2": null,
      "city": "Chicago",
      "zip_code": "60647",
      "country": "US",
      "state": "IL"
    },
    "phone": "+17737722343"
  },
  {
    "name": "Garfield Park Conservatory",
    "rating": 5,
    "location": {
      "address1": "300 N Central Park Ave",
      "address2": "",
      "city": "Chicago",
      "zip_code": "60624",
      "country": "US",
      "state": "IL"
    },
    "phone": "+17736381766"
  },
  {
    "name": "Cedar Palace",
    "rating": 5,
    "price": "$$",
    "location": {
      "address1": "655 W Armitage Ave",
      "address2": null,
      "city": "Chicago",
      "zip_code": "60614",
      "country": "US",
      "state": "IL"
    },
    "phone": "+13126430933"
  },
  {
    "name": "TeeJay's Sweet Tooth",
    "rating": 5,
    "price": "$",
    "location": {
      "address1": "8660 Purdue Rd",
      "address2": "Ste 600",
      "city": "Indianapolis",
      "zip_code": "46268",
      "country": "US",
      "state": "IN"
    },
    "phone": "+13177449764"
  },
  {
    "name": "3 in 1 Restaurant",
    "rating": 5,
    "price": "$",
    "location": {
      "address1": "1413 W 86th St",
      "address2": "Ste A2",
      "city": "Indianapolis",
      "zip_code": "46260",
      "country": "US",
      "state": "IN"
    },
    "phone": "+13179855091"
  },
  {
    "name": "Subito",
    "rating": 5,
    "price": "$$",
    "location": {
      "address1": "34 N Delaware",
      "address2": "",
      "city": "Indianapolis",
      "zip_code": "46204",
      "country": "US",
      "state": "IN"
    },
    "phone": "+13172208211"
  },
  {
    "name": "Coat Check Coffee",
    "rating": 5,
    "price": "$$",
    "location": {
      "address1": "401 E Michigan St",
      "address2": "",
      "city": "Indianapolis",
      "zip_code": "46204",
      "country": "US",
      "state": "IN"
    },
    "phone": "+13175505008"
  },
  {
    "name": "Ali'i Poke",
    "rating": 5,
    "price": "$$",
    "location": {
      "address1": "910 W 10th St",
      "address2": "",
      "city": "Indianapolis",
      "zip_code": "46202",
      "country": "US",
      "state": "IN"
    },
    "phone": "+13176023632"
  },
  {
    "name": "Gazali's",
    "rating": 4.5,
    "price": "$",
    "location": {
      "address1": "1205 25th St",
      "address2": null,
      "city": "Des Moines",
      "zip_code": "50311",
      "country": "US",
      "state": "IA"
    },
    "phone": "+15153099167"
  },
  {
    "name": "Simon's",
    "rating": 4.5,
    "price": "$$",
    "location": {
      "address1": "5800 Franklin Ave",
      "address2": "",
      "city": "Des Moines",
      "zip_code": "50322",
      "country": "US",
      "state": "IA"
    },
    "phone": "+15152553725"
  },
  {
    "name": "Mi Patria Ecuadorian Restaurant",
    "rating": 4.5,
    "price": "$$",
    "location": {
      "address1": "1410 22nd St",
      "address2": null,
      "city": "West Des Moines",
      "zip_code": "50266",
      "country": "US",
      "state": "IA"
    },
    "phone": "+15152222755"
  },
  {
    "name": "Coaches Kolaches",
    "rating": 5,
    "price": "$",
    "location": {
      "address1": "8527 University Blvd",
      "address2": "Ste 1",
      "city": "Clive",
      "zip_code": "50325",
      "country": "US",
      "state": "IA"
    },
    "phone": "+15153810129"
  },
  {
    "name": "Gong Fu Tea",
    "rating": 5,
    "price": "$$",
    "location": {
      "address1": "414 E 6th St",
      "address2": "",
      "city": "Des Moines",
      "zip_code": "50309",
      "country": "US",
      "state": "IA"
    },
    "phone": "+15152883388"
  },
  {
    "name": "Gabby's Peruvian Restaurant",
    "rating": 5,
    "price": "$$",
    "location": {
      "address1": "1002 S Seneca St",
      "address2": null,
      "city": "Wichita",
      "zip_code": "67213",
      "country": "US",
      "state": "KS"
    },
    "phone": "+13166138050"
  },
  {
    "name": "Doo-Dah Diner",
    "rating": 4.5,
    "price": "$$",
    "location": {
      "address1": "206 E Kellogg",
      "address2": "",
      "city": "Wichita",
      "zip_code": "67202",
      "country": "US",
      "state": "KS"
    },
    "phone": "+13162657011"
  },
  {
    "name": "Beautiful Day Cafe",
    "rating": 4.5,
    "price": "$$",
    "location": {
      "address1": "2516 E Central Ave",
      "address2": "",
      "city": "Wichita",
      "zip_code": "67214",
      "country": "US",
      "state": "KS"
    },
    "phone": "+13169779333"
  },
  {
    "name": "Tanya's Soup Kitchen",
    "rating": 4.5,
    "price": "$$",
    "location": {
      "address1": "1725 E Douglas Ave",
      "address2": "",
      "city": "Wichita",
      "zip_code": "67211",
      "country": "US",
      "state": "KS"
    },
    "phone": "+13162677687"
  },
  {
    "name": "Leslie Coffee Co.",
    "rating": 5,
    "location": {
      "address1": "930 W Douglas Ave",
      "address2": "Ste A",
      "city": "Wichita",
      "zip_code": "67203",
      "country": "US",
      "state": "KS"
    },
    "phone": "+13165006868"
  },
  {
    "name": "Yummy Pollo",
    "rating": 4.5,
    "price": "$",
    "location": {
      "address1": "4222-B Bishop Ln",
      "address2": null,
      "city": "Louisville",
      "zip_code": "40218",
      "country": "US",
      "state": "KY"
    },
    "phone": "+15026181400"
  },
  {
    "name": "Nord's Bakery",
    "rating": 4.5,
    "price": "$",
    "location": {
      "address1": "2118 S Preston St",
      "address2": "",
      "city": "Louisville",
      "zip_code": "40217",
      "country": "US",
      "state": "KY"
    },
    "phone": "+15026340931"
  },
  {
    "name": "Cherokee Park",
    "rating": 5,
    "location": {
      "address1": "Willow Ave And Cherokee Pkwy",
      "address2": null,
      "city": "Louisville",
      "zip_code": "40205",
      "country": "US",
      "state": "KY"
    },
    "phone": "+15024589450"
  },
  {
    "name": "Angel's Envy",
    "rating": 4.5,
    "price": "$$",
    "location": {
      "address1": "500 E Main St",
      "address2": "",
      "city": "Louisville",
      "zip_code": "40202",
      "country": "US",
      "state": "KY"
    },
    "phone": "+15028906300"
  },
  {
    "name": "Con Huevos",
    "rating": 4.5,
    "price": "$$",
    "location": {
      "address1": "2339 Frankfort Ave",
      "address2": "",
      "city": "Louisville",
      "zip_code": "40206",
      "country": "US",
      "state": "KY"
    },
    "phone": "+15023843027"
  },
  {
    "name": "Carnes Asadas Pancho Lopez",
    "rating": 5,
    "price": "$$",
    "location": {
      "address1": "3328 Pasadena Ave",
      "address2": null,
      "city": "Los Angeles",
      "zip_code": "90031",
      "country": "US",
      "state": "CA"
    },
    "phone": "+16265604842"
  },
  {
    "name": "Pisces Poke & Ramen",
    "rating": 5,
    "price": "$$",
    "location": {
      "address1": "5587 Huntington Dr N",
      "address2": "",
      "city": "Los Angeles",
      "zip_code": "90032",
      "country": "US",
      "state": "CA"
    },
    "phone": "+13233322701"
  },
  {
    "name": "Strada Eateria & Bar",
    "rating": 5,
    "price": "$$",
    "location": {
      "address1": "825 W 9th St",
      "address2": null,
      "city": "Los Angeles",
      "zip_code": "90015",
      "country": "US",
      "state": "CA"
    },
    "phone": "+12138224558"
  },
  {
    "name": "Lou The French On The Block",
    "rating": 5,
    "price": "$",
    "location": {
      "address1": "4007 W Riverside Dr",
      "address2": "Ste A",
      "city": "Burbank",
      "zip_code": "91505",
      "country": "US",
      "state": "CA"
    },
    "phone": "+17472418205"
  },
  {
    "name": "BROKEN MOUTH | Lee's Homestyle",
    "rating": 5,
    "price": "$$",
    "location": {
      "address1": "231 E 9th St",
      "address2": null,
      "city": "Los Angeles",
      "zip_code": "90015",
      "country": "US",
      "state": "CA"
    },
    "phone": "+12134189588"
  },
  {
    "name": "Bite Into Maine",
    "rating": 5,
    "price": "$$",
    "location": {
      "address1": "1000 Shore Rd",
      "address2": "",
      "city": "Cape Elizabeth",
      "zip_code": "04107",
      "country": "US",
      "state": "ME"
    },
    "phone": "+12072896142"
  },
  {
    "name": "Coffee ME Up",
    "rating": 5,
    "price": "$",
    "location": {
      "address1": "221 Cumberland Ave",
      "address2": "",
      "city": "Portland",
      "zip_code": "04101",
      "country": "US",
      "state": "ME"
    },
    "phone": "+12075361279"
  },
  {
    "name": "Crunchy Poké",
    "rating": 5,
    "price": "$$",
    "location": {
      "address1": "426 Fore St",
      "address2": null,
      "city": "Portland",
      "zip_code": "04101",
      "country": "US",
      "state": "ME"
    },
    "phone": "+12078350838"
  },
  {
    "name": "Portland Head Light",
    "rating": 4.5,
    "location": {
      "address1": "1000 Shore Rd",
      "address2": "",
      "city": "Cape Elizabeth",
      "zip_code": "04107",
      "country": "US",
      "state": "ME"
    },
    "phone": "+12077992661"
  },
  {
    "name": "The Gelato Fiasco",
    "rating": 4.5,
    "price": "$$",
    "location": {
      "address1": "425 Fore St",
      "address2": "",
      "city": "Portland",
      "zip_code": "04101",
      "country": "US",
      "state": "ME"
    },
    "phone": "+12076994314"
  },
  {
    "name": "Ekiben",
    "rating": 4.5,
    "price": "$$",
    "location": {
      "address1": "1622 Eastern Ave",
      "address2": "",
      "city": "Baltimore",
      "zip_code": "21231",
      "country": "US",
      "state": "MD"
    },
    "phone": ""
  },
  {
    "name": "Joe Benny's",
    "rating": 4.5,
    "price": "$$",
    "location": {
      "address1": "313 S High St",
      "address2": "",
      "city": "Baltimore",
      "zip_code": "21202",
      "country": "US",
      "state": "MD"
    },
    "phone": "+14438354866"
  },
  {
    "name": "Royal Taj",
    "rating": 4.5,
    "price": "$$",
    "location": {
      "address1": "8335 Benson Dr",
      "address2": "",
      "city": "Columbia",
      "zip_code": "21045",
      "country": "US",
      "state": "MD"
    },
    "phone": "+14103811111"
  },
  {
    "name": "Waffie",
    "rating": 5,
    "price": "$",
    "location": {
      "address1": "839 W 36th St",
      "address2": "",
      "city": "Baltimore",
      "zip_code": "21211",
      "country": "US",
      "state": "MD"
    },
    "phone": ""
  },
  {
    "name": "Café Dear Leon",
    "rating": 5,
    "location": {
      "address1": "2929 O'Donnell St",
      "address2": "",
      "city": "Baltimore",
      "zip_code": "21224",
      "country": "US",
      "state": "MD"
    },
    "phone": "+16673122977"
  },
  {
    "name": "Ciao! Pizza & Pasta",
    "rating": 5,
    "price": "$$",
    "location": {
      "address1": "59 Williams St",
      "address2": null,
      "city": "Chelsea",
      "zip_code": "02150",
      "country": "US",
      "state": "MA"
    },
    "phone": "+16172869346"
  },
  {
    "name": "Recreo Coffee & Roasterie",
    "rating": 5,
    "price": "$$",
    "location": {
      "address1": "1876 Centre St",
      "address2": null,
      "city": "West Roxbury",
      "zip_code": "02132",
      "country": "US",
      "state": "MA"
    },
    "phone": "+16175532379"
  },
  {
    "name": "Polcari's Coffee",
    "rating": 5,
    "price": "$$",
    "location": {
      "address1": "105 Salem St",
      "address2": "",
      "city": "Boston",
      "zip_code": "02113",
      "country": "US",
      "state": "MA"
    },
    "phone": "+16172270786"
  },
  {
    "name": "Boston Public Garden",
    "rating": 4.5,
    "location": {
      "address1": "4 Charles St",
      "address2": null,
      "city": "Boston",
      "zip_code": "02116",
      "country": "US",
      "state": "MA"
    },
    "phone": ""
  },
  {
    "name": "Arnold Arboretum",
    "rating": 4.5,
    "location": {
      "address1": "125 Arborway",
      "address2": "",
      "city": "Boston",
      "zip_code": "02130",
      "country": "US",
      "state": "MA"
    },
    "phone": "+16175241718"
  },
  {
    "name": "Ernie's Market",
    "rating": 4.5,
    "price": "$",
    "location": {
      "address1": "8500 Capital St",
      "address2": "",
      "city": "Oak Park",
      "zip_code": "48237",
      "country": "US",
      "state": "MI"
    },
    "phone": "+12485419703"
  },
  {
    "name": "Detroit Institute of Arts",
    "rating": 4.5,
    "location": {
      "address1": "5200 Woodward Ave",
      "address2": "",
      "city": "Detroit",
      "zip_code": "48202",
      "country": "US",
      "state": "MI"
    },
    "phone": "+13138337900"
  },
  {
    "name": "Boostan Cafe",
    "rating": 5,
    "price": "$",
    "location": {
      "address1": "3470 Holbrook Ave",
      "address2": "",
      "city": "Hamtramck",
      "zip_code": "48212",
      "country": "US",
      "state": "MI"
    },
    "phone": "+13134568100"
  },
  {
    "name": "Qahwah House",
    "rating": 5,
    "price": "$$",
    "location": {
      "address1": "6655 Schaefer Rd",
      "address2": "",
      "city": "Dearborn",
      "zip_code": "48126",
      "country": "US",
      "state": "MI"
    },
    "phone": "+13139084521"
  },
  {
    "name": "Beirut Bakery",
    "rating": 5,
    "price": "$",
    "location": {
      "address1": "25706 Schoolcraft",
      "address2": "",
      "city": "Redford",
      "zip_code": "48239",
      "country": "US",
      "state": "MI"
    },
    "phone": "+13135334422"
  },
  {
    "name": "Cahill Bistro",
    "rating": 5,
    "price": "$$",
    "location": {
      "address1": "7078 Amundson Ave",
      "address2": null,
      "city": "Edina",
      "zip_code": "55439",
      "country": "US",
      "state": "MN"
    },
    "phone": "+19524264196"
  },
  {
    "name": "Catrinas Cerveza & Mexican Grill",
    "rating": 4.5,
    "price": "$",
    "location": {
      "address1": "1091 Geneva Ave N",
      "address2": null,
      "city": "Oakdale",
      "zip_code": "55128",
      "country": "US",
      "state": "MN"
    },
    "phone": "+16514939156"
  },
  {
    "name": "Delsur Empanadas",
    "rating": 5,
    "price": "$",
    "location": {
      "address1": "14725 Excelsior Blvd",
      "address2": null,
      "city": "Minnetonka",
      "zip_code": "55345",
      "country": "US",
      "state": "MN"
    },
    "phone": "+19523036081"
  },
  {
    "name": "Minneapolis Institute of Art",
    "rating": 4.5,
    "location": {
      "address1": "2400 3rd Ave S",
      "address2": "",
      "city": "Minneapolis",
      "zip_code": "55404",
      "country": "US",
      "state": "MN"
    },
    "phone": "+16128703000"
  },
  {
    "name": "Ten Sushi Japanese Restaurant",
    "rating": 4.5,
    "price": "$$",
    "location": {
      "address1": "16362 County Rd 30",
      "address2": "",
      "city": "Maple Grove",
      "zip_code": "55311",
      "country": "US",
      "state": "MN"
    },
    "phone": "+17637105522"
  },
  {
    "name": "The Pig & Pint",
    "rating": 4.5,
    "price": "$$",
    "location": {
      "address1": "3139 N State St",
      "address2": "",
      "city": "Jackson",
      "zip_code": "39216",
      "country": "US",
      "state": "MS"
    },
    "phone": "+16013266070"
  },
  {
    "name": "Lou's Full-Serv",
    "rating": 4.5,
    "price": "$$",
    "location": {
      "address1": "904B E Fortification St",
      "address2": "Ste B",
      "city": "Jackson",
      "zip_code": "39202",
      "country": "US",
      "state": "MS"
    },
    "phone": "+16014876359"
  },
  {
    "name": "Stamps Superburger",
    "rating": 4.5,
    "price": "$",
    "location": {
      "address1": "1801 Dalton St",
      "address2": "",
      "city": "Jackson",
      "zip_code": "39204",
      "country": "US",
      "state": "MS"
    },
    "phone": "+16013524555"
  },
  {
    "name": "Gumbo Girl",
    "rating": 4.5,
    "price": "$$",
    "location": {
      "address1": "900 E County Line Rd",
      "address2": "Ste 107",
      "city": "Ridgeland",
      "zip_code": "39157",
      "country": "US",
      "state": "MS"
    },
    "phone": "+16017900486"
  },
  {
    "name": "Mama Hamil’s ",
    "rating": 4.5,
    "price": "$$",
    "location": {
      "address1": "480 Magnolia St",
      "address2": "",
      "city": "Madison",
      "zip_code": "39110",
      "country": "US",
      "state": "MS"
    },
    "phone": "+16018564407"
  },
  {
    "name": "The Nelson-Atkins Museum of Art",
    "rating": 5,
    "location": {
      "address1": "4525 Oak St",
      "address2": "",
      "city": "Kansas City",
      "zip_code": "64111",
      "country": "US",
      "state": "MO"
    },
    "phone": "+18167511278"
  },
  {
    "name": "National WWI Museum and Memorial",
    "rating": 5,
    "location": {
      "address1": "2 Memorial Dr",
      "address2": "",
      "city": "Kansas City",
      "zip_code": "64108",
      "country": "US",
      "state": "MO"
    },
    "phone": "+18168888100"
  },
  {
    "name": "Scott's Kitchen and Catering at Hangar 29",
    "rating": 5,
    "price": "$$",
    "location": {
      "address1": "11920 N Ambassador Dr",
      "address2": null,
      "city": "Kansas City",
      "zip_code": "64153",
      "country": "US",
      "state": "MO"
    },
    "phone": "+18162700505"
  },
  {
    "name": "Bay Boy Specialty Sandwiches",
    "rating": 5,
    "price": "$",
    "location": {
      "address1": "4706 Holly St",
      "address2": "",
      "city": "Kansas City",
      "zip_code": "64112",
      "country": "US",
      "state": "MO"
    },
    "phone": "+18166733960"
  },
  {
    "name": "Vested Garment District Coffee",
    "rating": 5,
    "price": "$",
    "location": {
      "address1": "310 W 8th St",
      "address2": null,
      "city": "Kansas City",
      "zip_code": "64105",
      "country": "US",
      "state": "MO"
    },
    "phone": "+18164907898"
  },
  {
    "name": "The Burger Dive",
    "rating": 4.5,
    "price": "$$",
    "location": {
      "address1": "114 N 27th St",
      "address2": "",
      "city": "Billings",
      "zip_code": "59101",
      "country": "US",
      "state": "MT"
    },
    "phone": "+14062818292"
  },
  {
    "name": "Caramel Cookie Waffles Corp",
    "rating": 5,
    "price": "$",
    "location": {
      "address1": "1707 17th St W",
      "address2": "",
      "city": "Billings",
      "zip_code": "59102",
      "country": "US",
      "state": "MT"
    },
    "phone": "+14062521960"
  },
  {
    "name": "Ebon Coffee Collective",
    "rating": 5,
    "price": "$$",
    "location": {
      "address1": "3024 2nd Ave N",
      "address2": "",
      "city": "Billings",
      "zip_code": "59101",
      "country": "US",
      "state": "MT"
    },
    "phone": "+14068392030"
  },
  {
    "name": "The Fieldhouse",
    "rating": 4.5,
    "price": "$$",
    "location": {
      "address1": "2601 Minnesota Ave",
      "address2": "Ste 3",
      "city": "Billings",
      "zip_code": "59101",
      "country": "US",
      "state": "MT"
    },
    "phone": "+14065342556"
  },
  {
    "name": "Crazy Mary's Fish N Chips",
    "rating": 4.5,
    "price": "$$",
    "location": {
      "address1": "1404 6th Ave N",
      "address2": "",
      "city": "Billings",
      "zip_code": "59101",
      "country": "US",
      "state": "MT"
    },
    "phone": "+14062520089"
  },
  {
    "name": "Coneflower Creamery",
    "rating": 5,
    "price": "$",
    "location": {
      "address1": "3921 Farnam St",
      "address2": "",
      "city": "Omaha",
      "zip_code": "68131",
      "country": "US",
      "state": "NE"
    },
    "phone": "+14029132399"
  },
  {
    "name": "Howlin' Hounds Coffee",
    "rating": 5,
    "price": "$",
    "location": {
      "address1": "712 S 16th St",
      "address2": "",
      "city": "Omaha",
      "zip_code": "68102",
      "country": "US",
      "state": "NE"
    },
    "phone": "+14025907680"
  },
  {
    "name": "Tasty Pizza",
    "rating": 4.5,
    "price": "$",
    "location": {
      "address1": "5423 Leavenworth St",
      "address2": "",
      "city": "Omaha",
      "zip_code": "68106",
      "country": "US",
      "state": "NE"
    },
    "phone": "+14029339392"
  },
  {
    "name": "Au Courant",
    "rating": 4.5,
    "price": "$$$",
    "location": {
      "address1": "6064 Maple St",
      "address2": "",
      "city": "Omaha",
      "zip_code": "68104",
      "country": "US",
      "state": "NE"
    },
    "phone": "+14025059917"
  },
  {
    "name": "Block 16",
    "rating": 4.5,
    "price": "$$",
    "location": {
      "address1": "1611 Farnam St",
      "address2": "",
      "city": "Omaha",
      "zip_code": "68106",
      "country": "US",
      "state": "NE"
    },
    "phone": "+14023421220"
  },
  {
    "name": "Yaw Farm Coffee Roaster",
    "rating": 5,
    "location": {
      "address1": "7034 W Charleston Blvd",
      "address2": null,
      "city": "Las Vegas",
      "zip_code": "89117",
      "country": "US",
      "state": "NV"
    },
    "phone": "+17027477274"
  },
  {
    "name": "Brew Tea Bar",
    "rating": 5,
    "price": "$",
    "location": {
      "address1": "7380 S Rainbow Blvd",
      "address2": "Ste 101",
      "city": "Las Vegas",
      "zip_code": "89139",
      "country": "US",
      "state": "NV"
    },
    "phone": "+17026855889"
  },
  {
    "name": "Garlic Yuzu",
    "rating": 5,
    "price": "$$",
    "location": {
      "address1": "7250 S Durango Dr",
      "address2": "Ste 120",
      "city": "Las Vegas",
      "zip_code": "89113",
      "country": "US",
      "state": "NV"
    },
    "phone": "+17022687312"
  },
  {
    "name": "Dig This",
    "rating": 5,
    "location": {
      "address1": "800 W Roban Ave",
      "address2": null,
      "city": "Las Vegas",
      "zip_code": "89044",
      "country": "US",
      "state": "NV"
    },
    "phone": "+17022224344"
  },
  {
    "name": "Brew Tea Bar",
    "rating": 5,
    "price": "$",
    "location": {
      "address1": "9480 S Eastern Ave",
      "address2": "Ste 160",
      "city": "Las Vegas",
      "zip_code": "89123",
      "country": "US",
      "state": "NV"
    },
    "phone": "+17027502017"
  },
  {
    "name": "Tuckers",
    "rating": 4.5,
    "price": "$$",
    "location": {
      "address1": "1328 Hooksett Rd",
      "address2": "",
      "city": "Hooksett",
      "zip_code": "03106",
      "country": "US",
      "state": "NH"
    },
    "phone": "+16032065757"
  },
  {
    "name": "Dancing Lion Chocolate",
    "rating": 5,
    "price": "$$",
    "location": {
      "address1": "917 Elm St",
      "address2": "",
      "city": "Manchester",
      "zip_code": "03101",
      "country": "US",
      "state": "NH"
    },
    "phone": "+16036254043"
  },
  {
    "name": "El Rincon Zacatecano Taqueria",
    "rating": 4.5,
    "price": "$$",
    "location": {
      "address1": "10 Lake Ave",
      "address2": "",
      "city": "Manchester",
      "zip_code": "03101",
      "country": "US",
      "state": "NH"
    },
    "phone": "+16032324530"
  },
  {
    "name": "The Gyro Spot",
    "rating": 4.5,
    "price": "$",
    "location": {
      "address1": "1073 Elm St",
      "address2": "",
      "city": "Manchester",
      "zip_code": "03101",
      "country": "US",
      "state": "NH"
    },
    "phone": "+16032183869"
  },
  {
    "name": "Daw Kun Thai",
    "rating": 4.5,
    "price": "$$",
    "location": {
      "address1": "2626 Brown Ave",
      "address2": null,
      "city": "Manchester",
      "zip_code": "03103",
      "country": "US",
      "state": "NH"
    },
    "phone": "+16032320699"
  },
  {
    "name": "Scott's Pizza Tours",
    "rating": 5,
    "price": "$$",
    "location": {
      "address1": "",
      "address2": "",
      "city": "New York",
      "zip_code": "10001",
      "country": "US",
      "state": "NY"
    },
    "phone": ""
  },
  {
    "name": "Royal Grill Halal Food",
    "rating": 5,
    "price": "$",
    "location": {
      "address1": "44TH St And 6th Ave",
      "address2": "",
      "city": "New York",
      "zip_code": "10018",
      "country": "US",
      "state": "NY"
    },
    "phone": "+13477240504"
  },
  {
    "name": "Cafe Talya",
    "rating": 5,
    "price": "$",
    "location": {
      "address1": "218 Ave B",
      "address2": "",
      "city": "Bayonne",
      "zip_code": "07002",
      "country": "US",
      "state": "NJ"
    },
    "phone": "+12015355333"
  },
  {
    "name": "Casa d'Paco",
    "rating": 4.5,
    "price": "$$",
    "location": {
      "address1": "73 Warwick St",
      "address2": "",
      "city": "Newark",
      "zip_code": "07105",
      "country": "US",
      "state": "NJ"
    },
    "phone": "+18623436300"
  },
  {
    "name": "Mysttik Masaala",
    "rating": 4.5,
    "price": "$",
    "location": {
      "address1": "399 Park Ave",
      "address2": "Corner of 54th street",
      "city": "New York",
      "zip_code": "10022",
      "country": "US",
      "state": "NY"
    },
    "phone": "+19173063128"
  },
  {
    "name": "2 G's Bistro",
    "rating": 5,
    "price": "$$",
    "location": {
      "address1": "414 Central Ave SE",
      "address2": "",
      "city": "Albuquerque",
      "zip_code": "87102",
      "country": "US",
      "state": "NM"
    },
    "phone": "+15052462040"
  },
  {
    "name": "Gobble This",
    "rating": 5,
    "price": "$$",
    "location": {
      "address1": "308 San Felipe St NW",
      "address2": null,
      "city": "Albuquerque",
      "zip_code": "87106",
      "country": "US",
      "state": "NM"
    },
    "phone": "+15059753969"
  },
  {
    "name": "Guava Tree Cafe",
    "rating": 4.5,
    "price": "$$",
    "location": {
      "address1": "118 Richmond Dr NE",
      "address2": "",
      "city": "Albuquerque",
      "zip_code": "87106",
      "country": "US",
      "state": "NM"
    },
    "phone": "+15059902599"
  },
  {
    "name": "Slow Roasted Bocadillos",
    "rating": 5,
    "price": "$",
    "location": {
      "address1": "200 Lomas Blvd NW",
      "address2": "Ste 110",
      "city": "Albuquerque",
      "zip_code": "87102",
      "country": "US",
      "state": "NM"
    },
    "phone": "+15052433995"
  },
  {
    "name": "I Scream Ice Cream",
    "rating": 4.5,
    "price": "$",
    "location": {
      "address1": "2000 Carlisle Blvd NE",
      "address2": "",
      "city": "Albuquerque",
      "zip_code": "87110",
      "country": "US",
      "state": "NM"
    },
    "phone": "+15052680139"
  },
  {
    "name": "Otis",
    "rating": 5,
    "price": "$$",
    "location": {
      "address1": "18 Harrison Pl",
      "address2": null,
      "city": "Brooklyn",
      "zip_code": "11206",
      "country": "US",
      "state": "NY"
    },
    "phone": "+16468860601"
  },
  {
    "name": "Taste of Heaven",
    "rating": 5,
    "price": "$$",
    "location": {
      "address1": "251 Jackson St",
      "address2": "",
      "city": "Brooklyn",
      "zip_code": "11211",
      "country": "US",
      "state": "NY"
    },
    "phone": "+17185763146"
  },
  {
    "name": "The Metropolitan Museum of Art",
    "rating": 4.5,
    "location": {
      "address1": "1000 5th Ave",
      "address2": "",
      "city": "New York",
      "zip_code": "10028",
      "country": "US",
      "state": "NY"
    },
    "phone": "+12125357710"
  },
  {
    "name": "Panzerotti Bites",
    "rating": 5,
    "price": "$$",
    "location": {
      "address1": "235 Smith St",
      "address2": null,
      "city": "Brooklyn",
      "zip_code": "11231",
      "country": "US",
      "state": "NY"
    },
    "phone": "+17184889300"
  },
  {
    "name": "National September 11 Memorial Museum",
    "rating": 4.5,
    "location": {
      "address1": "180 Greenwich St",
      "address2": "",
      "city": "New York",
      "zip_code": "10007",
      "country": "US",
      "state": "NY"
    },
    "phone": "+12122665211"
  },
  {
    "name": "Chili Man",
    "rating": 5,
    "price": "$",
    "location": {
      "address1": "1044 Copperfield Blvd",
      "address2": null,
      "city": "concord",
      "zip_code": "28025",
      "country": "US",
      "state": "NC"
    },
    "phone": "+19803301814"
  },
  {
    "name": "Enderly Coffee Co.",
    "rating": 5,
    "price": "$",
    "location": {
      "address1": "2620 Tuckaseegee Rd",
      "address2": "",
      "city": "Charlotte",
      "zip_code": "28208",
      "country": "US",
      "state": "NC"
    },
    "phone": "+17044483799"
  },
  {
    "name": "Abugida Ethiopian Cafe & Restaurant",
    "rating": 5,
    "price": "$$",
    "location": {
      "address1": "3007 Central Ave",
      "address2": "",
      "city": "Charlotte",
      "zip_code": "28205",
      "country": "US",
      "state": "NC"
    },
    "phone": "+19802372760"
  },
  {
    "name": "Enat Ethiopian Restaurant",
    "rating": 5,
    "price": "$$",
    "location": {
      "address1": "4450 The Plz",
      "address2": "Ste D",
      "city": "Charlotte",
      "zip_code": "28215",
      "country": "US",
      "state": "NC"
    },
    "phone": "+19802370716"
  },
  {
    "name": "The Tasty Bowl Subs N Such",
    "rating": 5,
    "price": "$",
    "location": {
      "address1": "2900 Westinghouse Blvd",
      "address2": "Ste 116",
      "city": "Charlotte",
      "zip_code": "28273",
      "country": "US",
      "state": "NC"
    },
    "phone": "+19802376006"
  },
  {
    "name": "Young Blood Coffee",
    "rating": 5,
    "price": "$$",
    "location": {
      "address1": "623 2nd Ave N",
      "address2": "",
      "city": "Fargo",
      "zip_code": "58102",
      "country": "US",
      "state": "ND"
    },
    "phone": ""
  },
  {
    "name": "India Palace",
    "rating": 4.5,
    "price": "$$",
    "location": {
      "address1": "5050 13th Ave S",
      "address2": "Ste 3",
      "city": "Fargo",
      "zip_code": "58103",
      "country": "US",
      "state": "ND"
    },
    "phone": "+17013566500"
  },
  {
    "name": "Twenty Below Coffee",
    "rating": 5,
    "price": "$",
    "location": {
      "address1": "14 Roberts St N",
      "address2": "",
      "city": "Fargo",
      "zip_code": "58102",
      "country": "US",
      "state": "ND"
    },
    "phone": "+17015660977"
  },
  {
    "name": "Bernbaum's",
    "rating": 5,
    "price": "$$",
    "location": {
      "address1": "402 Broadway N",
      "address2": "",
      "city": "Fargo",
      "zip_code": "58102",
      "country": "US",
      "state": "ND"
    },
    "phone": "+17013064131"
  },
  {
    "name": "Mezzaluna",
    "rating": 4.5,
    "price": "$$$",
    "location": {
      "address1": "309 Roberts St",
      "address2": null,
      "city": "Fargo",
      "zip_code": "58102",
      "country": "US",
      "state": "ND"
    },
    "phone": "+17013649479"
  },
  {
    "name": "Scotty's Cafe",
    "rating": 5,
    "price": "$",
    "location": {
      "address1": "2980 E Broad St",
      "address2": "",
      "city": "Columbus",
      "zip_code": "43209",
      "country": "US",
      "state": "OH"
    },
    "phone": "+16142371949"
  },
  {
    "name": "Brassica",
    "rating": 4.5,
    "price": "$$",
    "location": {
      "address1": "680 N High St",
      "address2": null,
      "city": "Columbus",
      "zip_code": "43215",
      "country": "US",
      "state": "OH"
    },
    "phone": "+16148675885"
  },
  {
    "name": "Donna's Delicious Dozen",
    "rating": 5,
    "price": "$",
    "location": {
      "address1": "5322 N Hamilton Rd",
      "address2": "",
      "city": "Columbus",
      "zip_code": "43230",
      "country": "US",
      "state": "OH"
    },
    "phone": "+16142454859"
  },
  {
    "name": "Tyler's Pizzeria & Bakery",
    "rating": 5,
    "price": "$",
    "location": {
      "address1": "7516 E Main St",
      "address2": "",
      "city": "Reynoldsburg",
      "zip_code": "43068",
      "country": "US",
      "state": "OH"
    },
    "phone": "+16143229587"
  },
  {
    "name": "Kitchen Social",
    "rating": 4.5,
    "price": "$$",
    "location": {
      "address1": "8954 Lyra Dr",
      "address2": "",
      "city": "Columbus",
      "zip_code": "43240",
      "country": "US",
      "state": "OH"
    },
    "phone": "+16145058492"
  },
  {
    "name": "Oklahoma City National Memorial & Museum",
    "rating": 5,
    "location": {
      "address1": "620 N Harvey Ave",
      "address2": "",
      "city": "Oklahoma City",
      "zip_code": "73102",
      "country": "US",
      "state": "OK"
    },
    "phone": "+14052353313"
  },
  {
    "name": "Four J's Laotian & Thai Cuisine",
    "rating": 5,
    "price": "$",
    "location": {
      "address1": "2920 S Agnew Ave",
      "address2": "Ste 3",
      "city": "Oklahoma City",
      "zip_code": "73108",
      "country": "US",
      "state": "OK"
    },
    "phone": "+14055123944"
  },
  {
    "name": "Ganache Patisserie",
    "rating": 5,
    "price": "$$",
    "location": {
      "address1": "13230 Pawnee Dr",
      "address2": "Ste 114",
      "city": "Oklahoma City",
      "zip_code": "73114",
      "country": "US",
      "state": "OK"
    },
    "phone": "+14052864068"
  },
  {
    "name": "Clarity Coffee",
    "rating": 4.5,
    "price": "$$",
    "location": {
      "address1": "431 W Main St",
      "address2": "Ste A",
      "city": "Oklahoma City",
      "zip_code": "73102",
      "country": "US",
      "state": "OK"
    },
    "phone": "+14052520155"
  },
  {
    "name": "Pie Junkie",
    "rating": 4.5,
    "price": "$",
    "location": {
      "address1": "1711 NW 16th St",
      "address2": "",
      "city": "Oklahoma City",
      "zip_code": "73106",
      "country": "US",
      "state": "OK"
    },
    "phone": "+14056058767"
  },
  {
    "name": "Malka",
    "rating": 5,
    "price": "$$",
    "location": {
      "address1": "4546 SE Division St",
      "address2": "",
      "city": "Portland",
      "zip_code": "97206",
      "country": "US",
      "state": "OR"
    },
    "phone": "+15038994245"
  },
  {
    "name": "Willow",
    "rating": 5,
    "price": "$$$$",
    "location": {
      "address1": "2005 SE 11th Ave",
      "address2": "",
      "city": "Portland",
      "zip_code": "97214",
      "country": "US",
      "state": "OR"
    },
    "phone": "+19719787641"
  },
  {
    "name": "Ovation Coffee & Tea",
    "rating": 5,
    "price": "$",
    "location": {
      "address1": "941 NW Overton St",
      "address2": "",
      "city": "Portland",
      "zip_code": "97209",
      "country": "US",
      "state": "OR"
    },
    "phone": "+15037197716"
  },
  {
    "name": "Swiss Hibiscus",
    "rating": 5,
    "price": "$$",
    "location": {
      "address1": "4950 NE 14th Ave",
      "address2": "",
      "city": "Portland",
      "zip_code": "97211",
      "country": "US",
      "state": "OR"
    },
    "phone": "+15034779224"
  },
  {
    "name": "Pita House",
    "rating": 5,
    "price": "$$",
    "location": {
      "address1": "715 W Main St",
      "address2": "Ste 117",
      "city": "Battle Ground",
      "zip_code": "98604",
      "country": "US",
      "state": "WA"
    },
    "phone": "+13606669017"
  },
  {
    "name": "Christie's Deli",
    "rating": 5,
    "price": "$",
    "location": {
      "address1": "1822 Spring Garden St",
      "address2": "Unit B",
      "city": "Philadelphia",
      "zip_code": "19130",
      "country": "US",
      "state": "PA"
    },
    "phone": "+12155630555"
  },
  {
    "name": "The Sweet Life Bakeshop",
    "rating": 5,
    "price": "$$",
    "location": {
      "address1": "740 South St",
      "address2": "",
      "city": "Philadelphia",
      "zip_code": "19147",
      "country": "US",
      "state": "PA"
    },
    "phone": "+12157177770"
  },
  {
    "name": "ICI Macarons & Cafe",
    "rating": 5,
    "price": "$$",
    "location": {
      "address1": "230 Arch St",
      "address2": null,
      "city": "Philadelphia",
      "zip_code": "19106",
      "country": "US",
      "state": "PA"
    },
    "phone": "+12156088938"
  },
  {
    "name": "Ice Cave",
    "rating": 5,
    "price": "$",
    "location": {
      "address1": "4520 Baltimore Ave",
      "address2": null,
      "city": "Philadelphia",
      "zip_code": "19143",
      "country": "US",
      "state": "PA"
    },
    "phone": "+14849268872"
  },
  {
    "name": "Reading Terminal Market",
    "rating": 4.5,
    "price": "$$",
    "location": {
      "address1": "51 N 12th St",
      "address2": "",
      "city": "Philadelphia",
      "zip_code": "19107",
      "country": "US",
      "state": "PA"
    },
    "phone": "+12159222317"
  },
  {
    "name": "Enoteca Umberto",
    "rating": 4.5,
    "price": "$$$$",
    "location": {
      "address1": "256 Atwells Ave",
      "address2": "",
      "city": "Providence",
      "zip_code": "02903",
      "country": "US",
      "state": "RI"
    },
    "phone": "+14012728466"
  },
  {
    "name": "Los Andes Restaurant",
    "rating": 4.5,
    "price": "$$",
    "location": {
      "address1": "903 Chalkstone Ave",
      "address2": "",
      "city": "Providence",
      "zip_code": "02908",
      "country": "US",
      "state": "RI"
    },
    "phone": "+14016494911"
  },
  {
    "name": "Hometown Cafe & Poké Bar",
    "rating": 5,
    "price": "$$",
    "location": {
      "address1": "185 Camp St",
      "address2": null,
      "city": "Providence",
      "zip_code": "02906",
      "country": "US",
      "state": "RI"
    },
    "phone": "+14018681247"
  },
  {
    "name": "The Rhody Hen Cafe",
    "rating": 4.5,
    "price": "$$",
    "location": {
      "address1": "350 Prospect St",
      "address2": null,
      "city": "Pawtucket",
      "zip_code": "02860",
      "country": "US",
      "state": "RI"
    },
    "phone": "+14014751368"
  },
  {
    "name": "East Side Pockets",
    "rating": 4.5,
    "price": "$",
    "location": {
      "address1": "278 Thayer St",
      "address2": "",
      "city": "Providence",
      "zip_code": "02906",
      "country": "US",
      "state": "RI"
    },
    "phone": "+14014531100"
  },
  {
    "name": "Tacos Nayarit",
    "rating": 5,
    "price": "$",
    "location": {
      "address1": "1531 Percival Rd",
      "address2": "",
      "city": "Columbia",
      "zip_code": "29223",
      "country": "US",
      "state": "SC"
    },
    "phone": "+18038140727"
  },
  {
    "name": "The Devine Cinnamon Roll Deli",
    "rating": 4.5,
    "price": "$",
    "location": {
      "address1": "2617 Devine St",
      "address2": "",
      "city": "Columbia",
      "zip_code": "29205",
      "country": "US",
      "state": "SC"
    },
    "phone": "+18034654947"
  },
  {
    "name": "Asanka Kitchen",
    "rating": 5,
    "location": {
      "address1": "10203 Two Notch Rd",
      "address2": "",
      "city": "Columbia",
      "zip_code": "29229",
      "country": "US",
      "state": "SC"
    },
    "phone": "+18038510111"
  },
  {
    "name": "Loveland Coffee",
    "rating": 5,
    "price": "$",
    "location": {
      "address1": "7001 St Andrews Rd",
      "address2": "",
      "city": "Columbia",
      "zip_code": "29212",
      "country": "US",
      "state": "SC"
    },
    "phone": "+18038516878"
  },
  {
    "name": "Duck Donuts",
    "rating": 4.5,
    "price": "$",
    "location": {
      "address1": "702 Cross Hill Rd",
      "address2": "Ste 100 B",
      "city": "Columbia",
      "zip_code": "29205",
      "country": "US",
      "state": "SC"
    },
    "phone": "+18038887424"
  },
  {
    "name": "Josiah's Coffeehouse and Cafe",
    "rating": 4.5,
    "price": "$$",
    "location": {
      "address1": "104 W 12th St",
      "address2": "",
      "city": "Sioux Falls",
      "zip_code": "57104",
      "country": "US",
      "state": "SD"
    },
    "phone": "+16057598255"
  },
  {
    "name": "Sanaa's Gourmet Restaurant",
    "rating": 4.5,
    "price": "$$",
    "location": {
      "address1": "401 E 8th St",
      "address2": "Ste 100",
      "city": "Sioux Falls",
      "zip_code": "57103",
      "country": "US",
      "state": "SD"
    },
    "phone": "+16052752516"
  },
  {
    "name": "Bread & Circus Sandwich Kitchen",
    "rating": 4.5,
    "price": "$$",
    "location": {
      "address1": "600 N Main Ave",
      "address2": "Ste 110",
      "city": "Sioux Falls",
      "zip_code": "57104",
      "country": "US",
      "state": "SD"
    },
    "phone": "+16053382206"
  },
  {
    "name": "Ch Patisserie",
    "rating": 4.5,
    "price": "$$",
    "location": {
      "address1": "309 S Phillips Ave",
      "address2": "Ste 1",
      "city": "Sioux Falls",
      "zip_code": "57104",
      "country": "US",
      "state": "SD"
    },
    "phone": "+16052750090"
  },
  {
    "name": "Falls Park",
    "rating": 4.5,
    "location": {
      "address1": "900 N Phillips Ave",
      "address2": "",
      "city": "Sioux Falls",
      "zip_code": "57104",
      "country": "US",
      "state": "SD"
    },
    "phone": "+16053677430"
  },
  {
    "name": "National Civil Rights Museum",
    "rating": 4.5,
    "location": {
      "address1": "450 Mulberry St",
      "address2": "",
      "city": "Memphis",
      "zip_code": "38103",
      "country": "US",
      "state": "TN"
    },
    "phone": "+19015219699"
  },
  {
    "name": "Flight Restaurant & Wine Bar",
    "rating": 4.5,
    "price": "$$$",
    "location": {
      "address1": "39 S Main St",
      "address2": null,
      "city": "Memphis",
      "zip_code": "38103",
      "country": "US",
      "state": "TN"
    },
    "phone": "+19015218005"
  },
  {
    "name": "Maciel's Tortas and Tacos",
    "rating": 4.5,
    "price": "$",
    "location": {
      "address1": "45 S Main St",
      "address2": null,
      "city": "Memphis",
      "zip_code": "38103",
      "country": "US",
      "state": "TN"
    },
    "phone": "+19015260037"
  },
  {
    "name": "Makedas Homemade Butter Cookies",
    "rating": 5,
    "price": "$",
    "location": {
      "address1": "488 S 2nd St",
      "address2": "",
      "city": "Memphis",
      "zip_code": "38103",
      "country": "US",
      "state": "TN"
    },
    "phone": "+19015721582"
  },
  {
    "name": "Sun Studio",
    "rating": 4.5,
    "location": {
      "address1": "706 Union Ave",
      "address2": "",
      "city": "Memphis",
      "zip_code": "38103",
      "country": "US",
      "state": "TN"
    },
    "phone": "+19015210664"
  },
  {
    "name": "The Gypsy Poet",
    "rating": 5,
    "price": "$$",
    "location": {
      "address1": "2404 Austin St",
      "address2": "",
      "city": "Houston",
      "zip_code": "77004",
      "country": "US",
      "state": "TX"
    },
    "phone": "+12818888663"
  },
  {
    "name": "The Original Kolache Shoppe",
    "rating": 5,
    "price": "$",
    "location": {
      "address1": "5404 Telephone Rd",
      "address2": "",
      "city": "Houston",
      "zip_code": "77087",
      "country": "US",
      "state": "TX"
    },
    "phone": "+17136490711"
  },
  {
    "name": "Las Tortas Perronas",
    "rating": 5,
    "price": "$",
    "location": {
      "address1": "1837 Bingle Rd",
      "address2": "",
      "city": "Houston",
      "zip_code": "77055",
      "country": "US",
      "state": "TX"
    },
    "phone": "+17134611900"
  },
  {
    "name": "Craft Pita",
    "rating": 5,
    "price": "$$",
    "location": {
      "address1": "1920 Fountain View Dr",
      "address2": null,
      "city": "Houston",
      "zip_code": "77057",
      "country": "US",
      "state": "TX"
    },
    "phone": "+18328049056"
  },
  {
    "name": "Treats of Mexico",
    "rating": 5,
    "price": "$",
    "location": {
      "address1": "724 Telephone",
      "address2": null,
      "city": "Houston",
      "zip_code": "77023",
      "country": "US",
      "state": "TX"
    },
    "phone": "+17137375958"
  },
  {
    "name": "Sweetaly Gelato",
    "rating": 5,
    "price": "$",
    "location": {
      "address1": "2245 Murray-Holladay Rd",
      "address2": null,
      "city": "Holladay",
      "zip_code": "84117",
      "country": "US",
      "state": "UT"
    },
    "phone": "+18014104192"
  },
  {
    "name": "Fillings & Emulsions",
    "rating": 5,
    "price": "$$",
    "location": {
      "address1": "1475 S Main St",
      "address2": "",
      "city": "Salt Lake City",
      "zip_code": "84115",
      "country": "US",
      "state": "UT"
    },
    "phone": "+13852294228"
  },
  {
    "name": "RubySnap Fresh Cookies",
    "rating": 5,
    "price": "$$",
    "location": {
      "address1": "770 S 300 W",
      "address2": "",
      "city": "Salt Lake City",
      "zip_code": "84101",
      "country": "US",
      "state": "UT"
    },
    "phone": "+18018346111"
  },
  {
    "name": "Stun Cube",
    "rating": 5,
    "price": "$",
    "location": {
      "address1": "2732 S State St",
      "address2": null,
      "city": "Salt Lake City",
      "zip_code": "84115",
      "country": "US",
      "state": "UT"
    },
    "phone": "+18014190082"
  },
  {
    "name": "Afghan Kitchen",
    "rating": 5,
    "price": "$$",
    "location": {
      "address1": "3142 Main St",
      "address2": null,
      "city": "Salt Lake City",
      "zip_code": "84115",
      "country": "US",
      "state": "UT"
    },
    "phone": "+13852294155"
  },
  {
    "name": "Penny Cluse Cafe",
    "rating": 4.5,
    "price": "$$",
    "location": {
      "address1": "169 Cherry St",
      "address2": "",
      "city": "Burlington",
      "zip_code": "05401",
      "country": "US",
      "state": "VT"
    },
    "phone": "+18026518834"
  },
  {
    "name": "Swingin' Pinwheel Cafe",
    "rating": 4.5,
    "price": "$$",
    "location": {
      "address1": "11 Center St",
      "address2": null,
      "city": "Burlington",
      "zip_code": "05401",
      "country": "US",
      "state": "VT"
    },
    "phone": "+18024483961"
  },
  {
    "name": "Hen of the Wood",
    "rating": 4.5,
    "price": "$$$",
    "location": {
      "address1": "55 Cherry St",
      "address2": "",
      "city": "Burlington",
      "zip_code": "05401",
      "country": "US",
      "state": "VT"
    },
    "phone": "+18025400534"
  },
  {
    "name": "Handy's Lunch",
    "rating": 4.5,
    "price": "$",
    "location": {
      "address1": "74 Maple St",
      "address2": "",
      "city": "Burlington",
      "zip_code": "05401",
      "country": "US",
      "state": "VT"
    },
    "phone": "+18028645963"
  },
  {
    "name": "Honey Road",
    "rating": 4.5,
    "price": "$$$",
    "location": {
      "address1": "156 Church St",
      "address2": "",
      "city": "Burlington",
      "zip_code": "05401",
      "country": "US",
      "state": "VT"
    },
    "phone": "+18024972145"
  },
  {
    "name": "Blue Seafood & Spirits",
    "rating": 5,
    "price": "$$",
    "location": {
      "address1": "2181 Upton Dr",
      "address2": "Ste 420",
      "city": "Virginia Beach",
      "zip_code": "23454",
      "country": "US",
      "state": "VA"
    },
    "phone": "+17576895395"
  },
  {
    "name": "Mazari Kebab and More",
    "rating": 4.5,
    "price": "$$",
    "location": {
      "address1": "676 N Witchduck Rd",
      "address2": null,
      "city": "Virginia Beach",
      "zip_code": "23462",
      "country": "US",
      "state": "VA"
    },
    "phone": "+17579615968"
  },
  {
    "name": "Maymar Poke & Grill",
    "rating": 5,
    "price": "$$",
    "location": {
      "address1": "130 Maple Ave",
      "address2": "Ste A",
      "city": "Norfolk",
      "zip_code": "23503",
      "country": "US",
      "state": "VA"
    },
    "phone": "+17572225543"
  },
  {
    "name": "Chrysler Museum of Art",
    "rating": 5,
    "location": {
      "address1": "One Memorial Pl",
      "address2": "",
      "city": "Norfolk",
      "zip_code": "23510",
      "country": "US",
      "state": "VA"
    },
    "phone": "+17576646200"
  },
  {
    "name": "DUCK DONUTS",
    "rating": 5,
    "price": "$",
    "location": {
      "address1": "233 Laskin Rd",
      "address2": "",
      "city": "Virginia Beach",
      "zip_code": "23451",
      "country": "US",
      "state": "VA"
    },
    "phone": "+17579621990"
  },
  {
    "name": "Ellenos Real Greek Yogurt",
    "rating": 5,
    "price": "$",
    "location": {
      "address1": "1500 Pike Pl",
      "address2": "",
      "city": "Seattle",
      "zip_code": "98101",
      "country": "US",
      "state": "WA"
    },
    "phone": "+12065357562"
  },
  {
    "name": "Taneda Sushi in Kaiseki",
    "rating": 5,
    "price": "$$$$",
    "location": {
      "address1": "219 Broadway E",
      "address2": "Ste 14",
      "city": "Seattle",
      "zip_code": "98102",
      "country": "US",
      "state": "WA"
    },
    "phone": ""
  },
  {
    "name": "Macadons",
    "rating": 5,
    "price": "$$",
    "location": {
      "address1": "9828 16th Ave SW",
      "address2": "",
      "city": "Seattle",
      "zip_code": "98106",
      "country": "US",
      "state": "WA"
    },
    "phone": "+12068410052"
  },
  {
    "name": "S/T Hooligans",
    "rating": 5,
    "price": "$$",
    "location": {
      "address1": "4354 Leary Way NW",
      "address2": "",
      "city": "Seattle",
      "zip_code": "98107",
      "country": "US",
      "state": "WA"
    },
    "phone": "+12066594754"
  },
  {
    "name": "Tasty Doux",
    "rating": 5,
    "price": "$$",
    "location": {
      "address1": "10216 SE 256th St",
      "address2": "Ste 111",
      "city": "Kent",
      "zip_code": "98030",
      "country": "US",
      "state": "WA"
    },
    "phone": "+12532467468"
  },
  {
    "name": "Pies & Pints",
    "rating": 4.5,
    "price": "$$",
    "location": {
      "address1": "222 Capitol St",
      "address2": "",
      "city": "Charleston",
      "zip_code": "25301",
      "country": "US",
      "state": "WV"
    },
    "phone": "+13043427437"
  },
  {
    "name": "Chow Thai",
    "rating": 4.5,
    "price": "$$",
    "location": {
      "address1": "426 1/2 B Shrewsbury St",
      "address2": "",
      "city": "Charleston",
      "zip_code": "25301",
      "country": "US",
      "state": "WV"
    },
    "phone": "+16812653800"
  },
  {
    "name": "Dem 2 Brothers And A Grill",
    "rating": 4.5,
    "price": "$$",
    "location": {
      "address1": "423 Virginia St W",
      "address2": "",
      "city": "Charleston",
      "zip_code": "25302",
      "country": "US",
      "state": "WV"
    },
    "phone": "+13044004977"
  },
  {
    "name": "Taylor Books",
    "rating": 4.5,
    "price": "$",
    "location": {
      "address1": "226 Capitol St",
      "address2": "",
      "city": "Charleston",
      "zip_code": "25301",
      "country": "US",
      "state": "WV"
    },
    "phone": "+13043421461"
  },
  {
    "name": "Yen's Sandwiches",
    "rating": 4.5,
    "price": "$",
    "location": {
      "address1": "606 D St",
      "address2": "",
      "city": "South Charleston",
      "zip_code": "25303",
      "country": "US",
      "state": "WV"
    },
    "phone": "+16812058442"
  },
  {
    "name": "Blue Star Cafe",
    "rating": 5,
    "price": "$",
    "location": {
      "address1": "1619 N Farwell Ave",
      "address2": "",
      "city": "Milwaukee",
      "zip_code": "53221",
      "country": "US",
      "state": "WI"
    },
    "phone": "+14142739744"
  },
  {
    "name": "Bunzel's Meat Market",
    "rating": 5,
    "price": "$$",
    "location": {
      "address1": "9015 W Burleigh St",
      "address2": "",
      "city": "Milwaukee",
      "zip_code": "53222",
      "country": "US",
      "state": "WI"
    },
    "phone": "+14148737960"
  },
  {
    "name": "Glorioso's Italian Market",
    "rating": 4.5,
    "price": "$$",
    "location": {
      "address1": "1011 E Brady St",
      "address2": "",
      "city": "Milwaukee",
      "zip_code": "53202",
      "country": "US",
      "state": "WI"
    },
    "phone": "+14142720540"
  },
  {
    "name": "Tofte's Table",
    "rating": 4.5,
    "price": "$$$",
    "location": {
      "address1": "331 Riverfront St",
      "address2": "",
      "city": "Waukesha",
      "zip_code": "53186",
      "country": "US",
      "state": "WI"
    },
    "phone": "+12624085633"
  },
  {
    "name": "Ono Kine Grindz",
    "rating": 4.5,
    "price": "$$",
    "location": {
      "address1": "7215 W North Ave",
      "address2": "",
      "city": "Wauwatosa",
      "zip_code": "53213",
      "country": "US",
      "state": "WI"
    },
    "phone": "+14147780727"
  },
  {
    "name": "Destination Taiwan",
    "rating": 5,
    "price": "$",
    "location": {
      "address1": "2634 Dell Range Blvd",
      "address2": "",
      "city": "Cheyenne",
      "zip_code": "82009",
      "country": "US",
      "state": "WY"
    },
    "phone": "+13075142702"
  },
  {
    "name": "Korean House",
    "rating": 4.5,
    "price": "$$",
    "location": {
      "address1": "3219 Snyder Ave",
      "address2": "",
      "city": "Cheyenne",
      "zip_code": "82001",
      "country": "US",
      "state": "WY"
    },
    "phone": "+13076387938"
  },
  {
    "name": "The Bread Basket",
    "rating": 4.5,
    "price": "$",
    "location": {
      "address1": "1819 Maxwell Ave",
      "address2": "",
      "city": "Cheyenne",
      "zip_code": "82001",
      "country": "US",
      "state": "WY"
    },
    "phone": "+13074322525"
  },
  {
    "name": "Paramount Cafe",
    "rating": 4.5,
    "price": "$",
    "location": {
      "address1": "1607 Capitol Ave",
      "address2": "",
      "city": "Cheyenne",
      "zip_code": "82001",
      "country": "US",
      "state": "WY"
    },
    "phone": "+13076342576"
  },
  {
    "name": "Mort's Bagels",
    "rating": 4.5,
    "price": "$",
    "location": {
      "address1": "1815 Carey Ave",
      "address2": "",
      "city": "Cheynne",
      "zip_code": "82001",
      "country": "US",
      "state": "WY"
    },
    "phone": "+13076375400"
=======
    "QuoteId": 3,
    "MinPrice": 110,
    "Direct": true,
    "OutboundLeg": {
      "CarrierIds": [
        851
      ],
      "OriginId": 60987,
      "DestinationId": 65368,
      "DepartureDate": "2021-03-31T00:00:00"
    },
    "QuoteDateTime": "2021-03-18T04:21:00",
    "Carrier": "Alaska Airlines",
    "OriginCity": "New York",
    "OriginState": "NY",
    "DestinationCity": "Los Angeles",
    "DestinationState": "CA"
  },
  {
    "QuoteId": 4,
    "MinPrice": 107,
    "Direct": false,
    "OutboundLeg": {
      "CarrierIds": [
        870
      ],
      "OriginId": 60987,
      "DestinationId": 73076,
      "DepartureDate": "2021-03-29T00:00:00"
    },
    "QuoteDateTime": "2021-03-19T00:31:00",
    "Carrier": "jetBlue",
    "OriginCity": "New York",
    "OriginState": "NY",
    "DestinationCity": "Chicago",
    "DestinationState": "IL"
  },
  {
    "QuoteId": 5,
    "MinPrice": 155,
    "Direct": false,
    "OutboundLeg": {
      "CarrierIds": [
        870
      ],
      "OriginId": 60987,
      "DestinationId": 67815,
      "DepartureDate": "2021-03-29T00:00:00"
    },
    "QuoteDateTime": "2021-03-16T18:38:00",
    "Carrier": "jetBlue",
    "OriginCity": "New York",
    "OriginState": "NY",
    "DestinationCity": "Chicago",
    "DestinationState": "IL"
  },
  {
    "QuoteId": 6,
    "MinPrice": 109,
    "Direct": true,
    "OutboundLeg": {
      "CarrierIds": [
        870
      ],
      "OriginId": 60987,
      "DestinationId": 58440,
      "DepartureDate": "2021-03-21T00:00:00"
    },
    "QuoteDateTime": "2021-03-19T02:17:00",
    "Carrier": "jetBlue",
    "OriginCity": "Houston",
    "OriginState": "NY",
    "DestinationCity": "New York",
    "DestinationState": "TX"
  },
  {
    "QuoteId": 7,
    "MinPrice": 225,
    "Direct": false,
    "OutboundLeg": {
      "CarrierIds": [
        870
      ],
      "OriginId": 60987,
      "DestinationId": 56821,
      "DepartureDate": "2021-03-31T00:00:00"
    },
    "QuoteDateTime": "2021-03-19T01:22:00",
    "Carrier": "jetBlue",
    "OriginCity": "Houston",
    "OriginState": "NY",
    "DestinationCity": "New York",
    "DestinationState": "TX"
  },
  {
    "QuoteId": 8,
    "MinPrice": 165,
    "Direct": false,
    "OutboundLeg": {
      "CarrierIds": [
        1065
      ],
      "OriginId": 60987,
      "DestinationId": 74920,
      "DepartureDate": "2021-03-30T00:00:00"
    },
    "QuoteDateTime": "2021-03-18T17:41:00",
    "Carrier": "Frontier Airlines",
    "OriginCity": "New York",
    "OriginState": "NY",
    "DestinationCity": "Phoenix",
    "DestinationState": "AZ"
  },
  {
    "QuoteId": 9,
    "MinPrice": 98,
    "Direct": false,
    "OutboundLeg": {
      "CarrierIds": [
        870
      ],
      "OriginId": 60987,
      "DestinationId": 74908,
      "DepartureDate": "2021-03-29T00:00:00"
    },
    "QuoteDateTime": "2021-03-16T19:38:00",
    "Carrier": "jetBlue",
    "OriginCity": "New York",
    "OriginState": "NY",
    "DestinationCity": "Philadelphia",
    "DestinationState": "PA"
  },
  {
    "QuoteId": 10,
    "MinPrice": 160,
    "Direct": false,
    "OutboundLeg": {
      "CarrierIds": [
        870
      ],
      "OriginId": 60987,
      "DestinationId": 81486,
      "DepartureDate": "2021-03-29T00:00:00"
    },
    "QuoteDateTime": "2021-03-19T02:37:00",
    "Carrier": "jetBlue",
    "OriginCity": "New York",
    "OriginState": "NY",
    "DestinationCity": "San Diego",
    "DestinationState": "CA"
  },
  {
    "QuoteId": 11,
    "MinPrice": 43,
    "Direct": true,
    "OutboundLeg": {
      "CarrierIds": [
        870
      ],
      "OriginId": 60987,
      "DestinationId": 47175,
      "DepartureDate": "2021-03-29T00:00:00"
    },
    "QuoteDateTime": "2021-03-17T05:38:00",
    "Carrier": "jetBlue",
    "OriginCity": "Dallas",
    "OriginState": "NY",
    "DestinationCity": "New York",
    "DestinationState": "TX"
  },
  {
    "QuoteId": 12,
    "MinPrice": 152,
    "Direct": false,
    "OutboundLeg": {
      "CarrierIds": [
        851
      ],
      "OriginId": 60987,
      "DestinationId": 46924,
      "DepartureDate": "2021-03-31T00:00:00"
    },
    "QuoteDateTime": "2021-03-18T01:57:00",
    "Carrier": "Alaska Airlines",
    "OriginCity": "Dallas",
    "OriginState": "NY",
    "DestinationCity": "New York",
    "DestinationState": "TX"
  },
  {
    "QuoteId": 13,
    "MinPrice": 149,
    "Direct": false,
    "OutboundLeg": {
      "CarrierIds": [
        870
      ],
      "OriginId": 60987,
      "DestinationId": 40979,
      "DepartureDate": "2021-03-23T00:00:00"
    },
    "QuoteDateTime": "2021-03-15T16:27:00",
    "Carrier": "jetBlue",
    "OriginCity": "Austin",
    "OriginState": "NY",
    "DestinationCity": "New York",
    "DestinationState": "TX"
  },
  {
    "QuoteId": 14,
    "MinPrice": 105,
    "Direct": false,
    "OutboundLeg": {
      "CarrierIds": [
        870
      ],
      "OriginId": 60987,
      "DestinationId": 81907,
      "DepartureDate": "2021-03-29T00:00:00"
    },
    "QuoteDateTime": "2021-03-17T15:44:00",
    "Carrier": "jetBlue",
    "OriginCity": "New York",
    "OriginState": "NY",
    "DestinationCity": "San Jose",
    "DestinationState": "CA"
  },
  {
    "QuoteId": 15,
    "MinPrice": 44,
    "Direct": true,
    "OutboundLeg": {
      "CarrierIds": [
        870
      ],
      "OriginId": 60987,
      "DestinationId": 47175,
      "DepartureDate": "2021-03-29T00:00:00"
    },
    "QuoteDateTime": "2021-03-17T05:38:00",
    "Carrier": "jetBlue",
    "OriginCity": "Dallas",
    "OriginState": "NY",
    "DestinationCity": "New York",
    "DestinationState": "TX"
  },
  {
    "QuoteId": 16,
    "MinPrice": 101,
    "Direct": true,
    "OutboundLeg": {
      "CarrierIds": [
        870
      ],
      "OriginId": 60987,
      "DestinationId": 45156,
      "DepartureDate": "2021-03-21T00:00:00"
    },
    "QuoteDateTime": "2021-03-18T19:08:00",
    "Carrier": "jetBlue",
    "OriginCity": "Charlotte",
    "OriginState": "NY",
    "DestinationCity": "New York",
    "DestinationState": "NC"
  },
  {
    "QuoteId": 17,
    "MinPrice": 142,
    "Direct": false,
    "OutboundLeg": {
      "CarrierIds": [
        870
      ],
      "OriginId": 60987,
      "DestinationId": 81727,
      "DepartureDate": "2021-03-30T00:00:00"
    },
    "QuoteDateTime": "2021-03-19T02:44:00",
    "Carrier": "jetBlue",
    "OriginCity": "New York",
    "OriginState": "NY",
    "DestinationCity": "San Francisco",
    "DestinationState": "CA"
  },
  {
    "QuoteId": 18,
    "MinPrice": 156,
    "Direct": false,
    "OutboundLeg": {
      "CarrierIds": [
        870
      ],
      "OriginId": 60987,
      "DestinationId": 81665,
      "DepartureDate": "2021-03-31T00:00:00"
    },
    "QuoteDateTime": "2021-03-19T02:05:00",
    "Carrier": "jetBlue",
    "OriginCity": "New York",
    "OriginState": "NY",
    "DestinationCity": "Seattle",
    "DestinationState": "WA"
  },
  {
    "QuoteId": 19,
    "MinPrice": 88,
    "Direct": false,
    "OutboundLeg": {
      "CarrierIds": [
        870
      ],
      "OriginId": 60987,
      "DestinationId": 47118,
      "DepartureDate": "2021-03-29T00:00:00"
    },
    "QuoteDateTime": "2021-03-18T22:31:00",
    "Carrier": "jetBlue",
    "OriginCity": "Denver",
    "OriginState": "NY",
    "DestinationCity": "New York",
    "DestinationState": "CO"
  },
  {
    "QuoteId": 20,
    "MinPrice": 114,
    "Direct": false,
    "OutboundLeg": {
      "CarrierIds": [
        870
      ],
      "OriginId": 60987,
      "DestinationId": 58436,
      "DepartureDate": "2021-03-29T00:00:00"
    },
    "QuoteDateTime": "2021-03-15T22:40:00",
    "Carrier": "jetBlue",
    "OriginCity": "Washington",
    "OriginState": "NY",
    "DestinationCity": "New York",
    "DestinationState": "VA"
  },
  {
    "QuoteId": 21,
    "MinPrice": 115,
    "Direct": false,
    "OutboundLeg": {
      "CarrierIds": [
        870
      ],
      "OriginId": 60987,
      "DestinationId": 47009,
      "DepartureDate": "2021-03-29T00:00:00"
    },
    "QuoteDateTime": "2021-03-15T22:40:00",
    "Carrier": "jetBlue",
    "OriginCity": "Washington",
    "OriginState": "NY",
    "DestinationCity": "New York",
    "DestinationState": "VA"
  },
  {
    "QuoteId": 22,
    "MinPrice": 112,
    "Direct": false,
    "OutboundLeg": {
      "CarrierIds": [
        1467
      ],
      "OriginId": 60987,
      "DestinationId": 43369,
      "DepartureDate": "2021-03-29T00:00:00"
    },
    "QuoteDateTime": "2021-03-15T22:40:00",
    "Carrier": "Spirit Airlines",
    "OriginCity": "Washington",
    "OriginState": "NY",
    "DestinationCity": "New York",
    "DestinationState": "MD"
  },
  {
    "QuoteId": 23,
    "MinPrice": 156,
    "Direct": false,
    "OutboundLeg": {
      "CarrierIds": [
        870
      ],
      "OriginId": 60987,
      "DestinationId": 81665,
      "DepartureDate": "2021-03-31T00:00:00"
    },
    "QuoteDateTime": "2021-03-19T02:05:00",
    "Carrier": "jetBlue",
    "OriginCity": "New York",
    "OriginState": "NY",
    "DestinationCity": "Seattle",
    "DestinationState": "WA"
  },
  {
    "QuoteId": 24,
    "MinPrice": 87,
    "Direct": true,
    "OutboundLeg": {
      "CarrierIds": [
        870
      ],
      "OriginId": 60987,
      "DestinationId": 42995,
      "DepartureDate": "2021-03-31T00:00:00"
    },
    "QuoteDateTime": "2021-03-17T14:01:00",
    "Carrier": "jetBlue",
    "OriginCity": "Boston",
    "OriginState": "NY",
    "DestinationCity": "New York",
    "DestinationState": "MA"
  },
  {
    "QuoteId": 25,
    "MinPrice": 132,
    "Direct": true,
    "OutboundLeg": {
      "CarrierIds": [
        870
      ],
      "OriginId": 60987,
      "DestinationId": 42929,
      "DepartureDate": "2021-03-25T00:00:00"
    },
    "QuoteDateTime": "2021-03-18T23:25:00",
    "Carrier": "jetBlue",
    "OriginCity": "Nashville",
    "OriginState": "NY",
    "DestinationCity": "New York",
    "DestinationState": "TN"
  },
  {
    "QuoteId": 26,
    "MinPrice": 117,
    "Direct": false,
    "OutboundLeg": {
      "CarrierIds": [
        1065
      ],
      "OriginId": 60987,
      "DestinationId": 65363,
      "DepartureDate": "2021-03-29T00:00:00"
    },
    "QuoteDateTime": "2021-03-19T02:46:00",
    "Carrier": "Frontier Airlines",
    "OriginCity": "New York",
    "OriginState": "NY",
    "DestinationCity": "Las Vegas",
    "DestinationState": "NV"
  },
  {
    "QuoteId": 27,
    "MinPrice": 139,
    "Direct": false,
    "OutboundLeg": {
      "CarrierIds": [
        870
      ],
      "OriginId": 60987,
      "DestinationId": 74728,
      "DepartureDate": "2021-03-31T00:00:00"
    },
    "QuoteDateTime": "2021-03-17T16:43:00",
    "Carrier": "jetBlue",
    "OriginCity": "New York",
    "OriginState": "NY",
    "DestinationCity": "Portland",
    "DestinationState": "OR"
  },
  {
    "QuoteId": 28,
    "MinPrice": 89,
    "Direct": true,
    "OutboundLeg": {
      "CarrierIds": [
        870
      ],
      "OriginId": 60987,
      "DestinationId": 40924,
      "DepartureDate": "2021-03-31T00:00:00"
    },
    "QuoteDateTime": "2021-03-19T02:50:00",
    "Carrier": "jetBlue",
    "OriginCity": "Atlanta",
    "OriginState": "NY",
    "DestinationCity": "New York",
    "DestinationState": "GA"
  },
  {
    "QuoteId": 29,
    "MinPrice": 117,
    "Direct": true,
    "OutboundLeg": {
      "CarrierIds": [
        870
      ],
      "OriginId": 60987,
      "DestinationId": 79333,
      "DepartureDate": "2021-03-22T00:00:00"
    },
    "QuoteDateTime": "2021-03-18T17:34:00",
    "Carrier": "jetBlue",
    "OriginCity": "New York",
    "OriginState": "NY",
    "DestinationCity": "Durham",
    "DestinationState": "NC"
  },
  {
    "QuoteId": 30,
    "MinPrice": 149,
    "Direct": false,
    "OutboundLeg": {
      "CarrierIds": [
        1065
      ],
      "OriginId": 60987,
      "DestinationId": 68033,
      "DepartureDate": "2021-03-27T00:00:00"
    },
    "QuoteDateTime": "2021-03-18T20:03:00",
    "Carrier": "Frontier Airlines",
    "OriginCity": "New York",
    "OriginState": "NY",
    "DestinationCity": "Miami",
    "DestinationState": "FL"
  },
  {
    "QuoteId": 31,
    "MinPrice": 138,
    "Direct": false,
    "OutboundLeg": {
      "CarrierIds": [
        870
      ],
      "OriginId": 60987,
      "DestinationId": 68528,
      "DepartureDate": "2021-03-29T00:00:00"
    },
    "QuoteDateTime": "2021-03-18T23:54:00",
    "Carrier": "jetBlue",
    "OriginCity": "New York",
    "OriginState": "NY",
    "DestinationCity": "Minneapolis",
    "DestinationState": "MN"
  },
  {
    "QuoteId": 32,
    "MinPrice": 110,
    "Direct": false,
    "OutboundLeg": {
      "CarrierIds": [
        870
      ],
      "OriginId": 60987,
      "DestinationId": 84497,
      "DepartureDate": "2021-03-29T00:00:00"
    },
    "QuoteDateTime": "2021-03-18T23:52:00",
    "Carrier": "jetBlue",
    "OriginCity": "New York",
    "OriginState": "NY",
    "DestinationCity": "Tampa",
    "DestinationState": "FL"
  },
  {
    "QuoteId": 33,
    "MinPrice": 138,
    "Direct": false,
    "OutboundLeg": {
      "CarrierIds": [
        870
      ],
      "OriginId": 60987,
      "DestinationId": 68537,
      "DepartureDate": "2021-03-23T00:00:00"
    },
    "QuoteDateTime": "2021-03-15T03:23:00",
    "Carrier": "jetBlue",
    "OriginCity": "New York",
    "OriginState": "NY",
    "DestinationCity": "New Orleans",
    "DestinationState": "LA"
  },
  {
    "QuoteId": 34,
    "MinPrice": 367,
    "Direct": false,
    "OutboundLeg": {
      "CarrierIds": [
        1169
      ],
      "OriginId": 60987,
      "DestinationId": 56764,
      "DepartureDate": "2021-03-29T00:00:00"
    },
    "QuoteDateTime": "2021-03-16T05:29:00",
    "Carrier": "Hawaiian Airlines",
    "OriginCity": "Honolulu",
    "OriginState": "NY",
    "DestinationCity": "New York",
    "DestinationState": "HI"
  },
  {
    "QuoteId": 35,
    "MinPrice": 110,
    "Direct": false,
    "OutboundLeg": {
      "CarrierIds": [
        870
      ],
      "OriginId": 60987,
      "DestinationId": 82396,
      "DepartureDate": "2021-03-29T00:00:00"
    },
    "QuoteDateTime": "2021-03-16T06:15:00",
    "Carrier": "jetBlue",
    "OriginCity": "New York",
    "OriginState": "NY",
    "DestinationCity": "St Louis",
    "DestinationState": "MO"
  },
  {
    "QuoteId": 36,
    "MinPrice": 132,
    "Direct": false,
    "OutboundLeg": {
      "CarrierIds": [
        870
      ],
      "OriginId": 60987,
      "DestinationId": 67759,
      "DepartureDate": "2021-03-29T00:00:00"
    },
    "QuoteDateTime": "2021-03-19T02:44:00",
    "Carrier": "jetBlue",
    "OriginCity": "New York",
    "OriginState": "NY",
    "DestinationCity": "Orlando",
    "DestinationState": "FL"

  }
]